{"type":"FeatureCollection","features":[{"type":"Feature","properties":{"Name":"Playa Arenal","Type":"Beach","Province":"Los Santos","Rating":4.5},"geometry":{"type":"Point","coordinates":[-80.020012,7.558944]}},{"type":"Feature","properties":{"Name":"Playa Los Destiladeros","Type":"Beach","Province":"Los Santos","Rating":4.5},"geometry":{"type":"Point","coordinates":[-80.046805,7.451113]}},{"type":"Feature","properties":{"Name":"Finca Pamel","Type":"Cultural","Province":"Los Santos","Rating":5},"geometry":{"type":"Point","coordinates":[-80.398265,7.95752]}},{"type":"Feature","properties":{"Name":"Playa Guarare","Type":"Beach","Province":"Los Santos","Rating":4.5},"geometry":{"type":"Point","coordinates":[-80.28266,7.866035]}},{"type":"Feature","properties":{"Name":"Playa Venao","Type":"Beach","Province":"Los Santos","Rating":4.5},"geometry":{"type":"Point","coordinates":[-80.196056,7.432552]}},{"type":"Feature","properties":{"Name":"Isla Iguana","Type":"Island","Province":"Los Santos","Rating":4.5},"geometry":{"type":"Point","coordinates":[-79.999073,7.631671]}},{"type":"Feature","properties":{"Name":"Isla de Canas","Type":"Island","Province":"Los Santos","Rating":4.5},"geometry":{"type":"Point","coordinates":[-80.326886,7.405863]}},{"type":"Feature","properties":{"Name":"Iglesia Santa Librada","Type":"Cultural","Province":"Los Santos","Rating":4.5},"geometry":{"type":"Point","coordinates":[-80.27823,7.766716]}},{"type":"Feature","properties":{"Name":"Surf Dojo","Type":"Recreational","Province":"Los Santos","Rating":5},"geometry":{"type":"Point","coordinates":[-80.265433,7.433715]}},{"type":"Feature","properties":{"Name":"Pacific Paradise Dive Shop and Ocean Lovers","Type":"Recreational","Province":"Los Santos","Rating":5},"geometry":{"type":"Point","coordinates":[-80.026743,7.530989]}},{"type":"Feature","properties":{"Name":"Catedral de San Juan Bautista","Type":"Cultural","Province":"Herrera","Rating":4.5},"geometry":{"type":"Point","coordinates":[-80.428265,7.962657]}},{"type":"Feature","properties":{"Name":"Sarigua National Park","Type":"Park","Province":"Herrera","Rating":3.5},"geometry":{"type":"Point","coordinates":[-80.485139,8.014209]}},{"type":"Feature","properties":{"Name":"Mall Paseo Central","Type":"Recreational","Province":"Herrera","Rating":3.5},"geometry":{"type":"Point","coordinates":[-80.447069,7.970152]}},{"type":"Feature","properties":{"Name":"Casino Azuero","Type":"Recreational","Province":"Herrera","Rating":4},"geometry":{"type":"Point","coordinates":[-80.438115,7.966118]}},{"type":"Feature","properties":{"Name":"Hacienda San Isidro","Type":"Cultural","Province":"Herrera","Rating":5},"geometry":{"type":"Point","coordinates":[-80.599223,7.900797]}},{"type":"Feature","properties":{"Name":"Mueseum de Herrera","Type":"Cultural","Province":"Herrera","Rating":3.5},"geometry":{"type":"Point","coordinates":[-80.429887,7.96436]}},{"type":"Feature","properties":{"Name":"Mezquita de Chitre","Type":"Cultural","Province":"Herrera","Rating":3},"geometry":{"type":"Point","coordinates":[-80.44062,7.96033]}},{"type":"Feature","properties":{"Name":"Cubita Tours","Type":"Cultural","Province":"Herrera","Rating":4.5},"geometry":{"type":"Point","coordinates":[-80.457763,7.966368]}},{"type":"Feature","properties":{"Name":"Reserva La Yeguada","Type":"Park","Province":"Veraguas","Rating":4.5},"geometry":{"type":"Point","coordinates":[-80.85596,8.455308]}},{"type":"Feature","properties":{"Name":"Isla Santa Catalina","Type":"Island","Province":"Veraguas","Rating":4.5},"geometry":{"type":"Point","coordinates":[-81.275439,7.623272]}},{"type":"Feature","properties":{"Name":"Isla Coiba National Park","Type":"Park","Province":"Veraguas","Rating":4.5},"geometry":{"type":"Point","coordinates":[-81.750976,7.426933]}},{"type":"Feature","properties":{"Name":"Rancho Estero","Type":"Recreational","Province":"Veraguas","Rating":5},"geometry":{"type":"Point","coordinates":[-81.247726,7.627896]}},{"type":"Feature","properties":{"Name":"Iglesia de San Francisco de la Montana","Type":"Cultural","Province":"Veraguas","Rating":4.5},"geometry":{"type":"Point","coordinates":[-80.971944,8.245423]}},{"type":"Feature","properties":{"Name":"Chon y Maria Organic Farm","Type":"Cultural","Province":"Veraguas","Rating":5},"geometry":{"type":"Point","coordinates":[-81.063315,8.530925]}},{"type":"Feature","properties":{"Name":"Playa Arrimadero","Type":"Beach","Province":"Veraguas","Rating":5},"geometry":{"type":"Point","coordinates":[-81.23795,7.619513]}},{"type":"Feature","properties":{"Name":"Cerro Hoya National Park","Type":"Park","Province":"Veraguas","Rating":4},"geometry":{"type":"Point","coordinates":[-80.699805,7.282788]}},{"type":"Feature","properties":{"Name":"Torio Beach","Type":"Beach","Province":"Veraguas","Rating":4},"geometry":{"type":"Point","coordinates":[-80.949741,7.552661]}},{"type":"Feature","properties":{"Name":"The Lost Waterfalls","Type":"Park","Province":"Chiriqui","Rating":4.5},"geometry":{"type":"Point","coordinates":[-82.472387,8.845064]}},{"type":"Feature","properties":{"Name":"Volcan Baru National Park","Type":"Park","Province":"Chiriqui","Rating":4.5},"geometry":{"type":"Point","coordinates":[-82.542091,8.809156]}},{"type":"Feature","properties":{"Name":"Sendero Los Quetzales","Type":"Park","Province":"Chiriqui","Rating":4.5},"geometry":{"type":"Point","coordinates":[-82.488569,8.84689]}},{"type":"Feature","properties":{"Name":"Pipeline Trail","Type":"Park","Province":"Chiriqui","Rating":4.5},"geometry":{"type":"Point","coordinates":[-82.480312,8.830075]}},{"type":"Feature","properties":{"Name":"Boquete Bees and Butterflies","Type":"Cultural","Province":"Chiriqui","Rating":5},"geometry":{"type":"Point","coordinates":[-82.439906,8.792077]}},{"type":"Feature","properties":{"Name":"Isla Bolanos","Type":"Island","Province":"Chiriqui","Rating":4.5},"geometry":{"type":"Point","coordinates":[-82.266151,8.093905]}},{"type":"Feature","properties":{"Name":"Jungla de Panama Wildlife Refuge","Type":"Park","Province":"Chiriqui","Rating":4.5},"geometry":{"type":"Point","coordinates":[-82.452218,8.74202]}},{"type":"Feature","properties":{"Name":"Parque Cervantes","Type":"Park","Province":"Chiriqui","Rating":4},"geometry":{"type":"Point","coordinates":[-82.425445,8.428081]}},{"type":"Feature","properties":{"Name":"Catedral de San Jose de David","Type":"Cultural","Province":"Chiriqui","Rating":4},"geometry":{"type":"Point","coordinates":[-82.421692,8.424509]}},{"type":"Feature","properties":{"Name":"El Explorador Gardens","Type":"Park","Province":"Chiriqui","Rating":4},"geometry":{"type":"Point","coordinates":[-82.423193,8.783494]}},{"type":"Feature","properties":{"Name":"Starfish Beach","Type":"Beach","Province":"Bocas del Toro","Rating":4},"geometry":{"type":"Point","coordinates":[-82.32526,9.405188]}},{"type":"Feature","properties":{"Name":"Isla Zapatillas","Type":"Island","Province":"Bocas del Toro","Rating":4.5},"geometry":{"type":"Point","coordinates":[-82.056692,9.266005]}},{"type":"Feature","properties":{"Name":"Plastic Bottle Village","Type":"Cultural","Province":"Bocas del Toro","Rating":4.5},"geometry":{"type":"Point","coordinates":[-82.262828,9.367924]}},{"type":"Feature","properties":{"Name":"Playa Boca del Drago","Type":"Beach","Province":"Bocas del Toro","Rating":4},"geometry":{"type":"Point","coordinates":[-82.330564,9.415282]}},{"type":"Feature","properties":{"Name":"Isla Bastimentos National Marine Park","Type":"Park","Province":"Bocas del Toro","Rating":4.5},"geometry":{"type":"Point","coordinates":[-82.143858,9.319561]}},{"type":"Feature","properties":{"Name":"Dolphin Bay Preserve","Type":"Park","Province":"Bocas del Toro","Rating":4},"geometry":{"type":"Point","coordinates":[-82.258049,9.241276]}},{"type":"Feature","properties":{"Name":"Red Frog Beach","Type":"Beach","Province":"Bocas del Toro","Rating":4},"geometry":{"type":"Point","coordinates":[-82.176283,9.343448]}},{"type":"Feature","properties":{"Name":"Polo Beach","Type":"Beach","Province":"Bocas del Toro","Rating":4.5},"geometry":{"type":"Point","coordinates":[-82.153412,9.342842]}},{"type":"Feature","properties":{"Name":"Isla Parajos","Type":"Island","Province":"Bocas del Toro","Rating":5},"geometry":{"type":"Point","coordinates":[-82.299222,9.453369]}},{"type":"Feature","properties":{"Name":"Reserva Forestal de Fortuna","Type":"Park","Province":"Ngabe Bugle","Rating":4.5},"geometry":{"type":"Point","coordinates":[-82.139333,8.714092]}},{"type":"Feature","properties":{"Name":"Cerro Santiago","Type":"Park","Province":"Ngabe Bugle","Rating":3.5},"geometry":{"type":"Point","coordinates":[-81.845633,8.582439]}},{"type":"Feature","properties":{"Name":"Jadeberi Park","Type":"Park","Province":"Ngabe Bugle","Rating":3},"geometry":{"type":"Point","coordinates":[-81.794974,8.483289]}},{"type":"Feature","properties":{"Name":"Salto de la Maestra o Chorro de Cerro Blanco","Type":"Park","Province":"Ngabe Bugle","Rating":5},"geometry":{"type":"Point","coordinates":[-82.032699,8.446153]}},{"type":"Feature","properties":{"Name":"Kiki Waterfall","Type":"Park","Province":"Ngabe Bugle","Rating":5},"geometry":{"type":"Point","coordinates":[-82.03409,8.453071]}},{"type":"Feature","properties":{"Name":"Butterfly Haven","Type":"Park","Province":"Cocle","Rating":4.5},"geometry":{"type":"Point","coordinates":[-80.129288,8.601307]}},{"type":"Feature","properties":{"Name":"The Sleeping Indian Girl","Type":"Park","Province":"Cocle","Rating":4.5},"geometry":{"type":"Point","coordinates":[-80.151313,8.61217]}},{"type":"Feature","properties":{"Name":"El Valle de Anton","Type":"Park","Province":"Cocle","Rating":4},"geometry":{"type":"Point","coordinates":[-80.170059,8.579828]}},{"type":"Feature","properties":{"Name":"El Chorro Macho","Type":"Park","Province":"Cocle","Rating":4},"geometry":{"type":"Point","coordinates":[-80.138629,8.625835]}},{"type":"Feature","properties":{"Name":"Playa Santa Clara","Type":"Beach","Province":"Cocle","Rating":4.5},"geometry":{"type":"Point","coordinates":[-80.106049,8.3744]}},{"type":"Feature","properties":{"Name":"El Nispero Zoo and Botanical Gardens","Type":"Park","Province":"Cocle","Rating":3.5},"geometry":{"type":"Point","coordinates":[-80.125689,8.611739]}},{"type":"Feature","properties":{"Name":"Los Pozos Termales","Type":"Cultural","Province":"Cocle","Rating":3.5},"geometry":{"type":"Point","coordinates":[-80.137584,8.599847]}},{"type":"Feature","properties":{"Name":"Arboles Cuadrados Nature Trail","Type":"Park","Province":"Cocle","Rating":3.5},"geometry":{"type":"Point","coordinates":[-80.111385,8.614346]}},{"type":"Feature","properties":{"Name":"El Serpentario","Type":"Cultural","Province":"Cocle","Rating":4},"geometry":{"type":"Point","coordinates":[-80.115766,8.601464]}},{"type":"Feature","properties":{"Name":"Gatun Locks","Type":"Cultural","Province":"Colon","Rating":4.5},"geometry":{"type":"Point","coordinates":[-79.923619,9.268746]}},{"type":"Feature","properties":{"Name":"Panama Canal Railway","Type":"Cultural","Province":"Colon","Rating":4},"geometry":{"type":"Point","coordinates":[-79.899769,9.350027]}},{"type":"Feature","properties":{"Name":"Agua Clara Locks","Type":"Cultural","Province":"Colon","Rating":4.5},"geometry":{"type":"Point","coordinates":[-79.909353,9.264761]}},{"type":"Feature","properties":{"Name":"Fort San Lorenzo","Type":"Cultural","Province":"Colon","Rating":4},"geometry":{"type":"Point","coordinates":[-80.001795,9.322765]}},{"type":"Feature","properties":{"Name":"Panama Rainforest Discovery Center","Type":"Park","Province":"Colon","Rating":4.5},"geometry":{"type":"Point","coordinates":[-79.720398,9.133461]}},{"type":"Feature","properties":{"Name":"Portobelo National Park","Type":"Park","Province":"Colon","Rating":4},"geometry":{"type":"Point","coordinates":[-79.65379,9.553182]}},{"type":"Feature","properties":{"Name":"Playa Turtle Cay","Type":"Beach","Province":"Colon","Rating":5},"geometry":{"type":"Point","coordinates":[-79.440476,9.598922]}},{"type":"Feature","properties":{"Name":"Chagres National Park","Type":"Park","Province":"Panama","Rating":4.5},"geometry":{"type":"Point","coordinates":[-79.423411,9.430182]}},{"type":"Feature","properties":{"Name":"Panama Canal","Type":"Cultural","Province":"Panama","Rating":4.5},"geometry":{"type":"Point","coordinates":[-79.591569,8.996508]}},{"type":"Feature","properties":{"Name":"Casco Viejo","Type":"Cultural","Province":"Panama","Rating":4.5},"geometry":{"type":"Point","coordinates":[-79.53465,8.951891]}},{"type":"Feature","properties":{"Name":"Amador Causeway","Type":"Cultural","Province":"Panama","Rating":4.5},"geometry":{"type":"Point","coordinates":[-79.527266,8.915616]}},{"type":"Feature","properties":{"Name":"Monkey Island","Type":"Park","Province":"Panama","Rating":4.5},"geometry":{"type":"Point","coordinates":[-79.778228,9.111053]}},{"type":"Feature","properties":{"Name":"Iglesia de San Pedro","Type":"Cultural","Province":"Panama","Rating":4.5},"geometry":{"type":"Point","coordinates":[-79.555228,8.795362]}},{"type":"Feature","properties":{"Name":"Playa Ejecutiva","Type":"Beach","Province":"Panama","Rating":4.5},"geometry":{"type":"Point","coordinates":[-79.03915,8.629228]}},{"type":"Feature","properties":{"Name":"Cinta Costera","Type":"Cultural","Province":"Panama","Rating":4.5},"geometry":{"type":"Point","coordinates":[-79.528944,8.9717]}},{"type":"Feature","properties":{"Name":"Biomuseo","Type":"Cultural","Province":"Panama","Rating":4.5},"geometry":{"type":"Point","coordinates":[-79.544653,8.931924]}},{"type":"Feature","properties":{"Name":"Soberania National Park","Type":"Park","Province":"Panama","Rating":4.5},"geometry":{"type":"Point","coordinates":[-79.65936,9.074858]}},{"type":"Feature","properties":{"Name":"Panama La Vieja","Type":"Cultural","Province":"Panama","Rating":4},"geometry":{"type":"Point","coordinates":[-79.485329,9.00655]}},{"type":"Feature","properties":{"Name":"Altos de Campana National Park","Type":"Park","Province":"Panama Oeste","Rating":5},"geometry":{"type":"Point","coordinates":[-79.92361,8.681501]}},{"type":"Feature","properties":{"Name":"Chame Bay Mangroves","Type":"Park","Province":"Panama Oeste","Rating":4.5},"geometry":{"type":"Point","coordinates":[-79.818922,8.66754]}},{"type":"Feature","properties":{"Name":"Playa La Hermita","Type":"Beach","Province":"Panama Oeste","Rating":4.5},"geometry":{"type":"Point","coordinates":[-80.028942,8.417544]}},{"type":"Feature","properties":{"Name":"Playa Punta Chame","Type":"Beach","Province":"Panama Oeste","Rating":4},"geometry":{"type":"Point","coordinates":[-79.697542,8.652853]}},{"type":"Feature","properties":{"Name":"Playa Teta","Type":"Beach","Province":"Panama Oeste","Rating":4},"geometry":{"type":"Point","coordinates":[-79.903912,8.519354]}},{"type":"Feature","properties":{"Name":"Playa El Palmar","Type":"Beach","Province":"Panama Oeste","Rating":4},"geometry":{"type":"Point","coordinates":[-79.957128,8.465941]}},{"type":"Feature","properties":{"Name":"Cascada Valle Chiquito","Type":"Park","Province":"Panama Oeste","Rating":5},"geometry":{"type":"Point","coordinates":[-80.067981,8.610364]}},{"type":"Feature","properties":{"Name":"Isla Perro","Type":"Island","Province":"Guna Yala","Rating":4.5},"geometry":{"type":"Point","coordinates":[-78.876193,9.558136]}},{"type":"Feature","properties":{"Name":"San Blas Islands","Type":"Island","Province":"Guna Yala","Rating":4.5},"geometry":{"type":"Point","coordinates":[-78.890226,9.549334]}},{"type":"Feature","properties":{"Name":"Isla Pelicano","Type":"Island","Province":"Guna Yala","Rating":4.5},"geometry":{"type":"Point","coordinates":[-78.872193,9.567338]}},{"type":"Feature","properties":{"Name":"Isla Chichime","Type":"Island","Province":"Guna Yala","Rating":4.5},"geometry":{"type":"Point","coordinates":[-78.879481,9.58606]}},{"type":"Feature","properties":{"Name":"Guna Yala Explorer","Type":"Cultural","Province":"Guna Yala","Rating":4.5},"geometry":{"type":"Point","coordinates":[-78.904987,9.42431]}},{"type":"Feature","properties":{"Name":"El Gitano Del Mar","Type":"Recreational","Province":"Guna Yala","Rating":5},"geometry":{"type":"Point","coordinates":[-78.948996,9.559013]}},{"type":"Feature","properties":{"Name":"San Blas Wild","Type":"Recreational","Province":"Guna Yala","Rating":4.5},"geometry":{"type":"Point","coordinates":[-78.947565,9.558182]}},{"type":"Feature","properties":{"Name":"Catamaran Adventures","Type":"Recreational","Province":"Guna Yala","Rating":4.5},"geometry":{"type":"Point","coordinates":[-78.948766,9.558124]}},{"type":"Feature","properties":{"Name":"Darien National Park","Type":"Park","Province":"Darien","Rating":4.5},"geometry":{"type":"Point","coordinates":[-77.542245,7.74733]}},{"type":"Feature","properties":{"Name":"Darien Gap","Type":"Park","Province":"Darien","Rating":4.5},"geometry":{"type":"Point","coordinates":[-77.686289,8.149824]}},{"type":"Feature","properties":{"Name":"Ecotour Darien","Type":"Cultural","Province":"Darien","Rating":5},"geometry":{"type":"Point","coordinates":[-77.691393,8.154809]}},{"type":"Feature","properties":{"Name":"Cerro Tacaruna","Type":"Park","Province":"Darien","Rating":3.5},"geometry":{"type":"Point","coordinates":[-77.294385,8.163098]}},{"type":"Feature","properties":{"Name":"Canglon Forest Reserve","Type":"Park","Province":"Darien","Rating":4.5},"geometry":{"type":"Point","coordinates":[-78.002772,8.321605]}},{"type":"Feature","properties":{"Name":"Playa del Jaque","Type":"Beach","Province":"Darien","Rating":4.5},"geometry":{"type":"Point","coordinates":[-78.162025,7.512307]}}]}